{"gpi":"39400010100330","productName":"Atorvastatin Calcium","brand":{"gpi10":"3940001010","name":"Atorvastatin Calcium","drugType":"GENERIC"},"dosageForm":{"name":"Tablet","unitName":"Tablet","gpiCode":"03"},"dosage":{"gpi":"39400010100330","gpiCode":"30","dosageStrength":"40","dosageUOM":"MG","dosageForm":{"name":"Tablet","unitName":"Tablet","gpiCode":"03"},"ndc":null,"description":null},"quantity":{"displayValue":30.0,"value":30.0,"uom":"","numScripts":0},"drugInfo":"Lipitor is used to treat high cholesterol and triglyceride levels. The generic version is Atorvastatin. The average Lipitor cash price is about $519 for a supply of 30, 40 mg tablets. You can use our free US Pharmacy Card savings card to lower your Lipitor cost by up to 80%. Use our coupon when you fill your prescription at a participating pharmacy near you.","drug":{"ndc":"00378395277","gpi":"39400010100330","gpi10":null,"productName":"Atorvastatin Calcium","productLabel":"","strength":"40","strengthUom":"MG","brandName":null,"drugType":"GENERIC"},"zip":"08823","city":"FRANKLIN PARK","state":"NJ","priceList":[{"pharmacy":{"ncpdpId":"3134791","affiliateFiveDigitCode":"00229","affiliateName":null,"npi":null,"pharmacyName":"Walmart Pharmacy","address":"979 Route 1 South","address2":"","city":"North Brunswick","state":"NJ","zip":"08902","zip4":null,"county":null,"phone":null,"fax":null,"chain":null,"independent":null,"latitude":40.45894,"longitude":-74.46947,"gelCodedUrl":null,"distance":5.48088914291303},"cashUnitPrice":4.232999928792318,"discountUnitPrice":0.3,"quantity":30.0,"binNumber":"020982","savings":117.99,"savingsRate":0.93,"formattedSavings":"$117.99","formattedSavingsRate":"93%","formattedDiscountUnitPrice":"$0.30","formattedCashPrice":"$126.99","formattedDiscountPrice":"$9.00","formattedCashUnitPrice":"$4.23","cashPrice":126.99,"discountPrice":9.0},{"pharmacy":{"ncpdpId":"3130426","affiliateFiveDigitCode":"00613","affiliateName":"SAKER SHOPRITES INC","npi":"1114032992","pharmacyName":"SHOPRITE PHARMACY","address":"400 RENAISSANCE BLVD","address2":"","city":"NORTH BRUNSWICK","state":"NJ","zip":"08902","zip4":"","county":"34023","phone":"7329406451","fax":"7329407692","chain":true,"independent":false,"latitude":40.45313,"longitude":-74.48287,"gelCodedUrl":"geocoder.us","distance":4.543680739455348},"cashUnitPrice":1.110564,"discountUnitPrice":0.44,"quantity":30.0,"binNumber":"008878","savings":20.12,"savingsRate":0.6,"formattedSavings":"$20.12","formattedSavingsRate":"60%","formattedDiscountUnitPrice":"$0.44","formattedCashPrice":"$33.32","formattedDiscountPrice":"$13.20","formattedCashUnitPrice":"$1.11","cashPrice":33.32,"discountPrice":13.2},{"pharmacy":{"ncpdpId":"3142926","affiliateFiveDigitCode":"00289","affiliateName":"STOP AND SHOP PHARMACY","npi":"1396777249","pharmacyName":"STOP & SHOP PHARMACY","address":"3333 ROUTE 27","address2":"","city":"FRANKLIN TOWNSHIP","state":"NJ","zip":"08823","zip4":"","county":"34035","phone":"7324224425","fax":"7324224427","chain":true,"independent":false,"latitude":40.42962,"longitude":-74.55642,"gelCodedUrl":"geocoder.us","distance":0.8241509688254711},"cashUnitPrice":1.381541,"discountUnitPrice":0.37,"quantity":30.0,"binNumber":"008878","savings":30.35,"savingsRate":0.73,"formattedSavings":"$30.35","formattedSavingsRate":"73%","formattedDiscountUnitPrice":"$0.37","formattedCashPrice":"$41.45","formattedDiscountPrice":"$11.10","formattedCashUnitPrice":"$1.38","cashPrice":41.45,"discountPrice":11.1},{"pharmacy":{"ncpdpId":"3128887","affiliateFiveDigitCode":"00177","affiliateName":null,"npi":null,"pharmacyName":"CVS Pharmacy","address":"3211 Route 27 Franklin Township","address2":"","city":"Franklin Park","state":"NJ","zip":"08823","zip4":null,"county":null,"phone":null,"fax":null,"chain":null,"independent":null,"latitude":40.43726,"longitude":-74.55426,"gelCodedUrl":null,"distance":0.862539090837436},"cashUnitPrice":4.232999928792318,"discountUnitPrice":1.809333292643229,"quantity":30.0,"binNumber":"020982","savings":72.71,"savingsRate":0.57,"formattedSavings":"$72.71","formattedSavingsRate":"57%","formattedDiscountUnitPrice":"$1.81","formattedCashPrice":"$126.99","formattedDiscountPrice":"$54.28","formattedCashUnitPrice":"$4.23","cashPrice":126.99,"discountPrice":54.28},{"pharmacy":{"ncpdpId":"3134739","affiliateFiveDigitCode":"00045","affiliateName":"RITE AID CORPORATION","npi":"1356450720","pharmacyName":"RITE AID PHARMACY 03477","address":"773 HAMILTON STREET","address2":"","city":"SOMERSET","state":"NJ","zip":"08873","zip4":"3102","county":"34035","phone":"7325452299","fax":"7325453596","chain":true,"independent":false,"latitude":40.49006,"longitude":-74.4765,"gelCodedUrl":"http://maps.googleapis.com/maps/api/geocode/xml?address=767+773+HAMILTON+AVENUE++++++++++++++++++++++++++++++++,FRANKLIN+TWP++++++++++++++++++,NJ,USA&sensor=false","distance":5.952036807952322},"cashUnitPrice":3.558225,"discountUnitPrice":0.57,"quantity":30.0,"binNumber":"008878","savings":89.65,"savingsRate":0.84,"formattedSavings":"$89.65","formattedSavingsRate":"84%","formattedDiscountUnitPrice":"$0.57","formattedCashPrice":"$106.75","formattedDiscountPrice":"$17.10","formattedCashUnitPrice":"$3.56","cashPrice":106.75,"discountPrice":17.1},{"pharmacy":{"ncpdpId":"3199901","affiliateFiveDigitCode":"00232","affiliateName":"WEIS PHARMACIES INC","npi":"1831537125","pharmacyName":"WEIS PHARMACY","address":"315 ROUTE 206","address2":"","city":"HILLSBOROUGH","state":"NJ","zip":"08844","zip4":"4627","county":"34035","phone":"9084310161","fax":"9084310228","chain":true,"independent":false,"latitude":40.51563,"longitude":-74.63208,"gelCodedUrl":"http://maps.googleapis.com/maps/api/geocode/xml?address=315+ROUTE+206,HILLSBOROUGH,NJ,USA&sensor=false","distance":6.337732511594167},"cashUnitPrice":1.975244,"discountUnitPrice":0.34,"quantity":30.0,"binNumber":"008878","savings":49.06,"savingsRate":0.83,"formattedSavings":"$49.06","formattedSavingsRate":"83%","formattedDiscountUnitPrice":"$0.34","formattedCashPrice":"$59.26","formattedDiscountPrice":"$10.20","formattedCashUnitPrice":"$1.98","cashPrice":59.26,"discountPrice":10.2},{"pharmacy":{"ncpdpId":"3144879","affiliateFiveDigitCode":"00226","affiliateName":null,"npi":null,"pharmacyName":"Walgreens","address":"3125 State Route 27","address2":"","city":"Franklin Park","state":"NJ","zip":"08823","zip4":null,"county":null,"phone":null,"fax":null,"chain":null,"independent":null,"latitude":40.43447,"longitude":-74.54486,"gelCodedUrl":null,"distance":1.3858216587802},"cashUnitPrice":4.232999928792318,"discountUnitPrice":0.5996666590372721,"quantity":30.0,"binNumber":"020982","savings":109.0,"savingsRate":0.86,"formattedSavings":"$109.00","formattedSavingsRate":"86%","formattedDiscountUnitPrice":"$0.60","formattedCashPrice":"$126.99","formattedDiscountPrice":"$17.99","formattedCashUnitPrice":"$4.23","cashPrice":126.99,"discountPrice":17.99}]}